{"name": "Tribune Tower", "city": "Chicago", "state": "Illinois", "platform": "Real Estate", "location": "Chicago, Illinois", "img_url": "https://cdn.prod.website-files.com/672bf5bf6c7413f157a23868/677dad436ec94337141f9d79_Tribune-Tower.avif", "img_filename": "Real Estate-Lightbox-Chicago Illinois-Tribune Tower.avif", "item_id": "677dad436ec94337141f9d79"}
{"name": "Front & York", "city": "New York", "state": "New York", "platform": "Real Estate", "location": "New York, New York", "img_url": "https://cdn.prod.website-files.com/672bf5bf6c7413f157a23868/677dad434a261fa68b54ddd4_Front-and-York.avif", "img_filename": "Real Estate-Lightbox-New York New York-Front and York.avif", "item_id": "677dad434a261fa68b54ddd4"}
{"name": "Centennial Yards", "city": "Atlanta", "state": "Georgia", "platform": "Real Estate", "location": "Atlanta, Georgia", "img_url": "https://cdn.prod.website-files.com/672bf5bf6c7413f157a23868/677dad427cec7c8a54301299_Centennial-Yards.avif", "img_filename": "Real Estate-Lightbox-Atlanta Georgia-Centennial Yards.avif", "item_id": "677dad427cec7c8a54301299"}
{"name": "The Independent", "city": "Austin", "state": "Texas", "platform": "Real Estate", "location": "Austin, Texas", "img_url": "https://cdn.prod.website-files.com/672bf5bf6c7413f157a23868/677dad421e1274f95d4ac5b7_Independent.avif", "img_filename": "Real Estate-Lightbox-Austin Texas-The Independent.avif", "item_id": "677dad421e1274f95d4ac5b7"}
{"name": "The Lot at Formosa", "city": "West Hollywood", "state": "California", "platform": "Real Estate", "location": "West Hollywood, California", "img_url": "https://cdn.prod.website-files.com/672bf5bf6c7413f157a23868/677dad42a978f3d313fe4c49_The-Lot.avif", "img_filename": "Real Estate-Lightbox-Los Angeles California-The Lot.avif", "item_id": "677dad42a978f3d313fe4c49"}
{"name": "Aquamarine Solar Project", "city": "San Joaquin Valley", "state": "California", "platform": "Infrastructure", "location": "San Joaquin Valley, California", "img_url": "https://cdn.prod.website-files.com/672bf5bf6c7413f157a23868/67901a494ba9a6d38e8501a9_Infrastructure-Lightbox-San-Joaquin-Valley-California-Aquamarine-Solar-Project.avif", "img_filename": "Infrastructure-Lightbox-San-Joaquin-Valley-California-Aquamarine-Solar-Project.avif", "item_id": "67901a494ba9a6d38e8501a9"}
{"name": "Maryville Carbon Solutions", "city": "Maryville", "state": "Missouri", "platform": "Infrastructure", "location": "Maryville, Missouri", "img_url": "https://cdn.prod.website-files.com/672bf5bf6c7413f157a23868/67901a4bb0fdbe34af1abd77_Infrastructure-Lightbox-Maryville-Missouri-Maryville-Carbon-Solutions.avif", "img_filename": "Infrastructure-Lightbox-Maryville-Missouri-Maryville-Carbon-Solutions.avif", "item_id": "67901a4bb0fdbe34af1abd77"}
{"name": "Terreva Renewables", "city": "Appleton", "state": "Wisconsin", "platform": "Infrastructure", "location": "Appleton, Wisconsin", "img_url": "https://cdn.prod.website-files.com/672bf5bf6c7413f157a23868/67901a4930c4261b6e2ceedc_Infrastructure-Lightbox-Appleton-Wisconsin-Terreva-Renewables.avif", "img_filename": "Infrastructure-Lightbox-Appleton-Wisconsin-Terreva-Renewables.avif", "item_id": "67901a4930c4261b6e2ceedc"}
{"name": "Antelope Valley Water Bank", "city": "Antelope Valley", "state": "California", "platform": "Infrastructure", "location": "Antelope Valley, California", "img_url": "https://cdn.prod.website-files.com/672bf5bf6c7413f157a23868/6792d22384d9251d2564251c_Infrastructure-Lightbox-Antelope-Valley-California-Antelope-Valley-Water-Bank.avif", "img_filename": "Infrastructure-Lightbox-Antelope-Valley-California-Antelope-Valley-Water-Bank.avif", "item_id": "6792d22384d9251d2564251c"}
{"name": "The View Apartments", "city": "Los Angeles", "state": "California", "platform": "Credit", "location": "Los Angeles, California", "img_url": "https://cdn.prod.website-files.com/672bf5bf6c7413f157a23868/67901a4918cd851756960a41_Credit-Lightbox-Los-Angeles-California-The-View-Apartments.avif", "img_filename": "Credit-Lightbox-Los-Angeles-California-The-View-Apartments.avif", "item_id": "67901a4918cd851756960a41"}
{"name": "The Adeline", "city": "Phoenix", "state": "Arizona", "platform": "Credit", "location": "Phoenix, Arizona", "img_url": "https://cdn.prod.website-files.com/672bf5bf6c7413f157a23868/67901a496ad4df4399db0a84_Credit-Lightbox-Phoenix-Arizona-The-Adeline.avif", "img_filename": "Credit-Lightbox-Phoenix-Arizona-The-Adeline.avif", "item_id": "67901a496ad4df4399db0a84"}
{"name": "Innovation Plaza", "city": "Houston", "state": "Texas", "platform": "Credit", "location": "Houston, Texas", "img_url": "https://cdn.prod.website-files.com/672bf5bf6c7413f157a23868/6792d22447886e5e8bb3577c_Credit-Lightbox-Houston-Texas-Innovation-Plaza.avif", "img_filename": "Credit-Lightbox-Houston-Texas-Innovation-Plaza.avif", "item_id": "6792d22447886e5e8bb3577c"}
